{"dbPresent": true, "provinces": [{"nameTh": "แพร่", "nameEn": "Phrae", "mss": 2133, "market": 4, "lat": 18.14, "lon": 100.14}, {"nameTh": "ลำปาง", "nameEn": "Lampang", "mss": 1180, "market": 2, "lat": 18.29, "lon": 99.49}, {"nameTh": "เชียงใหม่", "nameEn": "Chiang Mai", "mss": 836, "market": 31, "lat": 18.79, "lon": 98.98}, {"nameTh": "กรุงเทพมหานคร", "nameEn": "Bangkok", "mss": 21, "market": 834, "lat": 13.75, "lon": 100.5}, {"nameTh": "น่าน", "nameEn": "Nan", "mss": 694, "market": 0, "lat": 18.78, "lon": 100.77}, {"nameTh": "พะเยา", "nameEn": "Phayao", "mss": 585, "market": 6, "lat": 19.17, "lon": 99.9}, {"nameTh": "ลำพูน", "nameEn": "Lamphun", "mss": 368, "market": 3, "lat": 18.58, "lon": 99.01}, {"nameTh": "เชียงราย", "nameEn": "Chiang Rai", "mss": 333, "market": 9, "lat": 19.91, "lon": 99.83}, {"nameTh": "แม่ฮ่องสอน", "nameEn": "Mae Hong Son", "mss": 236, "market": 0, "lat": 19.3, "lon": 97.97}, {"nameTh": "นนทบุรี", "nameEn": "Nonthaburi", "mss": 0, "market": 225, "lat": 13.86, "lon": 100.51}, {"nameTh": "พิษณุโลก", "nameEn": "Phitsanulok", "mss": 0, "market": 80, "lat": 16.82, "lon": 100.27}, {"nameTh": "ปทุมธานี", "nameEn": "Pathum Thani", "mss": 0, "market": 74, "lat": 14.02, "lon": 100.53}, {"nameTh": "สมุทรสาคร", "nameEn": "Samut Sakhon", "mss": 0, "market": 67, "lat": 13.55, "lon": 100.27}, {"nameTh": "อุตรดิตถ์", "nameEn": "Uttaradit", "mss": 0, "market": 62, "lat": 17.62, "lon": 100.1}, {"nameTh": "สมุทรปราการ", "nameEn": "Samut Prakan", "mss": 0, "market": 41, "lat": 13.6, "lon": 100.6}, {"nameTh": "นครสวรรค์", "nameEn": "Nakhon Sawan", "mss": 0, "market": 35, "lat": 15.7, "lon": 100.14}, {"nameTh": "เลย", "nameEn": "Loei", "mss": 0, "market": 26, "lat": 17.49, "lon": 101.72}, {"nameTh": "ชลบุรี", "nameEn": "Chon Buri", "mss": 0, "market": 24, "lat": 13.36, "lon": 100.98}, {"nameTh": "สิงห์บุรี", "nameEn": "Sing Buri", "mss": 0, "market": 23, "lat": 14.89, "lon": 100.4}, {"nameTh": "ร้อยเอ็ด", "nameEn": "Roi Et", "mss": 0, "market": 20, "lat": 16.05, "lon": 103.65}, {"nameTh": "สุราษฎร์ธานี", "nameEn": "Surat Thani", "mss": 0, "market": 20, "lat": 9.14, "lon": 99.33}, {"nameTh": "ตราด", "nameEn": "Trat", "mss": 0, "market": 19, "lat": 12.24, "lon": 102.51}, {"nameTh": "นครราชสีมา", "nameEn": "Nakhon Ratchasima", "mss": 0, "market": 19, "lat": 14.98, "lon": 102.1}, {"nameTh": "พัทลุง", "nameEn": "Phatthalung", "mss": 0, "market": 16, "lat": 7.62, "lon": 100.07}, {"nameTh": "เพชรบูรณ์", "nameEn": "Phetchabun", "mss": 0, "market": 16, "lat": 16.42, "lon": 101.16}, {"nameTh": "อุบลราชธานี", "nameEn": "Ubon Ratchathani", "mss": 0, "market": 14, "lat": 15.24, "lon": 104.85}, {"nameTh": "ตรัง", "nameEn": "Trang", "mss": 0, "market": 13, "lat": 7.56, "lon": 99.61}, {"nameTh": "นครปฐม", "nameEn": "Nakhon Pathom", "mss": 0, "market": 11, "lat": 13.82, "lon": 100.06}, {"nameTh": "สกลนคร", "nameEn": "Sakon Nakhon", "mss": 0, "market": 11, "lat": 17.16, "lon": 104.15}, {"nameTh": "สุพรรณบุรี", "nameEn": "Suphan Buri", "mss": 0, "market": 11, "lat": 14.47, "lon": 100.12}, {"nameTh": "กำแพงเพชร", "nameEn": "Kamphaeng Phet", "mss": 0, "market": 9, "lat": 16.48, "lon": 99.52}, {"nameTh": "บุรีรัมย์", "nameEn": "Buri Ram", "mss": 0, "market": 9, "lat": 14.99, "lon": 103.1}, {"nameTh": "สงขลา", "nameEn": "Songkhla", "mss": 0, "market": 9, "lat": 7.19, "lon": 100.6}, {"nameTh": "ตาก", "nameEn": "Tak", "mss": 3, "market": 5, "lat": 16.87, "lon": 99.13}, {"nameTh": "ขอนแก่น", "nameEn": "Khon Kaen", "mss": 0, "market": 8, "lat": 16.43, "lon": 102.84}, {"nameTh": "ภูเก็ต", "nameEn": "Phuket", "mss": 0, "market": 6, "lat": 7.88, "lon": 98.39}, {"nameTh": "ราชบุรี", "nameEn": "Ratchaburi", "mss": 0, "market": 6, "lat": 13.53, "lon": 99.81}, {"nameTh": "อุดรธานี", "nameEn": "Udon Thani", "mss": 0, "market": 6, "lat": 17.41, "lon": 102.79}, {"nameTh": "ฉะเชิงเทรา", "nameEn": "Chachoengsao", "mss": 0, "market": 5, "lat": 13.69, "lon": 101.07}, {"nameTh": "นครศรีธรรมราช", "nameEn": "Nakhon Si Thammarat", "mss": 0, "market": 5, "lat": 8.44, "lon": 99.96}, {"nameTh": "พังงา", "nameEn": "Phang Nga", "mss": 0, "market": 5, "lat": 8.45, "lon": 98.53}, {"nameTh": "มหาสารคาม", "nameEn": "Maha Sarakham", "mss": 0, "market": 5, "lat": 16.18, "lon": 103.3}, {"nameTh": "เพชรบุรี", "nameEn": "Phetchaburi", "mss": 0, "market": 5, "lat": 13.11, "lon": 99.94}, {"nameTh": "กาญจนบุรี", "nameEn": "Kanchanaburi", "mss": 0, "market": 4, "lat": 14.02, "lon": 99.53}, {"nameTh": "กาฬสินธุ์", "nameEn": "Kalasin", "mss": 0, "market": 4, "lat": 16.43, "lon": 103.51}, {"nameTh": "ลพบุรี", "nameEn": "Lopburi", "mss": 0, "market": 4, "lat": 14.8, "lon": 100.65}, {"nameTh": "หนองคาย", "nameEn": "Nong Khai", "mss": 0, "market": 4, "lat": 17.88, "lon": 102.74}, {"nameTh": "หนองบัวลำภู", "nameEn": "Nong Bua Lamphu", "mss": 0, "market": 4, "lat": 17.2, "lon": 102.44}, {"nameTh": "อุทัยธานี", "nameEn": "Uthai Thani", "mss": 0, "market": 4, "lat": 15.38, "lon": 100.02}, {"nameTh": "ปราจีนบุรี", "nameEn": "Prachin Buri", "mss": 0, "market": 3, "lat": 14.05, "lon": 101.37}, {"nameTh": "พระนครศรีอยุธยา", "nameEn": "Ayutthaya", "mss": 0, "market": 3, "lat": 14.35, "lon": 100.57}, {"nameTh": "สมุทรสงคราม", "nameEn": "Samut Songkhram", "mss": 0, "market": 3, "lat": 13.41, "lon": 100.0}, {"nameTh": "กระบี่", "nameEn": "Krabi", "mss": 0, "market": 2, "lat": 8.09, "lon": 98.91}, {"nameTh": "จันทบุรี", "nameEn": "Chanthaburi", "mss": 0, "market": 2, "lat": 12.61, "lon": 102.1}, {"nameTh": "นครนายก", "nameEn": "Nakhon Nayok", "mss": 0, "market": 2, "lat": 14.2, "lon": 101.21}, {"nameTh": "นครพนม", "nameEn": "Nakhon Phanom", "mss": 0, "market": 2, "lat": 17.39, "lon": 104.77}, {"nameTh": "ระยอง", "nameEn": "Rayong", "mss": 0, "market": 2, "lat": 12.68, "lon": 101.28}, {"nameTh": "ชัยนาท", "nameEn": "Chai Nat", "mss": 0, "market": 1, "lat": 15.19, "lon": 100.13}, {"nameTh": "ชุมพร", "nameEn": "Chumphon", "mss": 0, "market": 1, "lat": 10.49, "lon": 99.18}, {"nameTh": "บึงกาฬ", "nameEn": "Bueng Kan", "mss": 0, "market": 1, "lat": 18.36, "lon": 103.65}, {"nameTh": "ศรีสะเกษ", "nameEn": "Si Sa Ket", "mss": 0, "market": 1, "lat": 15.12, "lon": 104.32}, {"nameTh": "สระบุรี", "nameEn": "Saraburi", "mss": 0, "market": 1, "lat": 14.53, "lon": 100.91}, {"nameTh": "สุรินทร์", "nameEn": "Surin", "mss": 0, "market": 1, "lat": 14.88, "lon": 103.49}, {"nameTh": "สุโขทัย", "nameEn": "Sukhothai", "mss": 0, "market": 1, "lat": 17.01, "lon": 99.82}, {"nameTh": "อ่างทอง", "nameEn": "Ang Thong", "mss": 0, "market": 1, "lat": 14.59, "lon": 100.46}], "unplaced": [{"nameTh": "Mueang District", "nameEn": "Mueang District", "mss": 28, "market": 0}, {"nameTh": "Sung Men District", "nameEn": "Sung Men District", "mss": 23, "market": 0}, {"nameTh": "Wat Sung Men", "nameEn": "Wat Sung Men", "mss": 22, "market": 0}, {"nameTh": "Ko Kha District", "nameEn": "Ko Kha District", "mss": 12, "market": 0}, {"nameTh": "Wat Lai Hin Luang", "nameEn": "Wat Lai Hin Luang", "mss": 9, "market": 0}, {"nameTh": "ต่างประเทศ", "nameEn": "Overseas", "mss": 0, "market": 8}, {"nameTh": "Wat Na Pang", "nameEn": "Wat Na Pang", "mss": 6, "market": 0}, {"nameTh": "Pua District", "nameEn": "Pua District", "mss": 4, "market": 0}, {"nameTh": "Tha District", "nameEn": "Tha District", "mss": 4, "market": 0}, {"nameTh": "Wat Chiang Man", "nameEn": "Wat Chiang Man", "mss": 4, "market": 0}, {"nameTh": "Mae Sariang District", "nameEn": "Mae Sariang District", "mss": 3, "market": 0}, {"nameTh": "Wat Si Khom Kham", "nameEn": "Wat Si Khom Kham", "mss": 3, "market": 0}, {"nameTh": "Wiang Sa District", "nameEn": "Wiang Sa District", "mss": 3, "market": 0}, {"nameTh": "Li District", "nameEn": "Li District", "mss": 2, "market": 0}, {"nameTh": "Wat Ban Ueam", "nameEn": "Wat Ban Ueam", "mss": 2, "market": 0}, {"nameTh": "Wat Klang", "nameEn": "Wat Klang", "mss": 2, "market": 0}, {"nameTh": "Wat Luang Ratchasanthan", "nameEn": "Wat Luang Ratchasanthan", "mss": 2, "market": 0}, {"nameTh": "Wat Pang Mu", "nameEn": "Wat Pang Mu", "mss": 2, "market": 0}, {"nameTh": "Wat Phothanaram", "nameEn": "Wat Phothanaram", "mss": 2, "market": 0}, {"nameTh": "Wat Phra Bat Ming Mueang", "nameEn": "Wat Phra Bat Ming Mueang", "mss": 2, "market": 0}, {"nameTh": "Wat Si Mongkhon (Kong)", "nameEn": "Wat Si Mongkhon (Kong)", "mss": 2, "market": 0}, {"nameTh": "Ban Hong District", "nameEn": "Ban Hong District", "mss": 1, "market": 0}, {"nameTh": "Hang Dong Disctrict", "nameEn": "Hang Dong Disctrict", "mss": 1, "market": 0}, {"nameTh": "Khun Yuam District", "nameEn": "Khun Yuam District", "mss": 1, "market": 0}, {"nameTh": "Pai District", "nameEn": "Pai District", "mss": 1, "market": 0}, {"nameTh": "Tha Wang Pha District", "nameEn": "Tha Wang Pha District", "mss": 1, "market": 0}, {"nameTh": "Thoen District", "nameEn": "Thoen District", "mss": 1, "market": 0}, {"nameTh": "Wat  Cedi Luang Worawihan", "nameEn": "Wat  Cedi Luang Worawihan", "mss": 1, "market": 0}, {"nameTh": "Wat Ban Caem", "nameEn": "Wat Ban Caem", "mss": 1, "market": 0}, {"nameTh": "Wat Ban Luk", "nameEn": "Wat Ban Luk", "mss": 1, "market": 0}, {"nameTh": "Wat Hia", "nameEn": "Wat Hia", "mss": 1, "market": 0}, {"nameTh": "Wat Kasa", "nameEn": "Wat Kasa", "mss": 1, "market": 0}, {"nameTh": "Wat Kittiwong", "nameEn": "Wat Kittiwong", "mss": 1, "market": 0}, {"nameTh": "Wat Mueang Mo", "nameEn": "Wat Mueang Mo", "mss": 1, "market": 0}, {"nameTh": "Wat Na Dao", "nameEn": "Wat Na Dao", "mss": 1, "market": 0}, {"nameTh": "Wat Nong Bua", "nameEn": "Wat Nong Bua", "mss": 1, "market": 0}, {"nameTh": "Wat Pa Mueat", "nameEn": "Wat Pa Mueat", "mss": 1, "market": 0}, {"nameTh": "Wat Pa Sao", "nameEn": "Wat Pa Sao", "mss": 1, "market": 0}, {"nameTh": "Wat Photharam", "nameEn": "Wat Photharam", "mss": 1, "market": 0}, {"nameTh": "Wat Phra Koet", "nameEn": "Wat Phra Koet", "mss": 1, "market": 0}, {"nameTh": "Wat Saen Mueang Ma", "nameEn": "Wat Saen Mueang Ma", "mss": 1, "market": 0}, {"nameTh": "Wat San Rim Ping", "nameEn": "Wat San Rim Ping", "mss": 1, "market": 0}, {"nameTh": "Wat Si Lom", "nameEn": "Wat Si Lom", "mss": 1, "market": 0}, {"nameTh": "Wat Si Suphan", "nameEn": "Wat Si Suphan", "mss": 1, "market": 0}], "totals": {"mss": 6549, "market": 1858}}