{"dbPresent": true, "places": [{"name": "Phrae", "value": "Phrae", "label": "Phrae", "n": 2133, "lat": 18.14, "lon": 100.14, "x": 713.9, "y": 463.4}, {"name": "Lampang", "value": "Lampang", "label": "Lampang", "n": 1180, "lat": 18.29, "lon": 99.49, "x": 533.3, "y": 431.4}, {"name": "Chiang Mai", "value": "Chiang Mai", "label": "Chiang Mai", "n": 836, "lat": 18.79, "lon": 98.98, "x": 391.7, "y": 324.6}, {"name": "Nan", "value": "Nan", "label": "Nan", "n": 694, "lat": 18.78, "lon": 100.77, "x": 888.9, "y": 326.7}, {"name": "Phayao", "value": "Phayao", "label": "Phayao", "n": 585, "lat": 19.17, "lon": 99.9, "x": 647.2, "y": 243.4}, {"name": "Lamphun", "value": "Lamphun", "label": "Lamphun", "n": 368, "lat": 18.58, "lon": 99.01, "x": 400.0, "y": 369.4}, {"name": "Chiang Rai", "value": "Chiang Rai", "label": "Chiang Rai", "n": 333, "lat": 19.91, "lon": 99.83, "x": 627.8, "y": 85.4}, {"name": "Mae Hong Son", "value": "Mae Hong Son", "label": "Mae Hong Son", "n": 236, "lat": 19.3, "lon": 97.97, "x": 111.1, "y": 215.7}, {"name": "Bangkok", "value": "Bangkok", "label": "Bangkok", "n": 21, "lat": 13.75, "lon": 100.5, "x": 813.9, "y": 820.0}, {"name": "Tak", "value": "Tak", "label": "Tak", "n": 3, "lat": 16.87, "lon": 99.13, "x": 433.3, "y": 734.6}], "unplaced": [{"name": "Mueang District", "value": "Mueang District", "n": 28}, {"name": "Sung Men District", "value": "Sung Men District", "n": 23}, {"name": "Wat Sung Men", "value": "Wat Sung Men", "n": 22}, {"name": "Ko Kha District", "value": "Ko Kha District", "n": 12}, {"name": "Wat Lai Hin Luang", "value": "Wat Lai Hin Luang", "n": 9}, {"name": "Wat Na Pang", "value": "Wat Na Pang", "n": 6}, {"name": "Wat Chiang Man", "value": "Wat Chiang Man", "n": 4}, {"name": "Tha District", "value": "Tha District", "n": 4}, {"name": "Pua District", "value": "Pua District", "n": 4}, {"name": "Wiang Sa District", "value": "Wiang Sa District", "n": 3}, {"name": "Wat Si Khom Kham", "value": "Wat Si Khom Kham", "n": 3}, {"name": "Mae Sariang District", "value": "Mae Sariang District", "n": 3}, {"name": "Wat Si Mongkhon (Kong)", "value": "Wat Si Mongkhon (Kong)", "n": 2}, {"name": "Wat Phra Bat Ming Mueang", "value": "Wat Phra Bat Ming Mueang", "n": 2}, {"name": "Wat Phothanaram", "value": "Wat Phothanaram", "n": 2}, {"name": "Wat Pang Mu", "value": "Wat Pang Mu", "n": 2}, {"name": "Wat Luang Ratchasanthan", "value": "Wat Luang Ratchasanthan", "n": 2}, {"name": "Wat Klang", "value": "Wat Klang", "n": 2}, {"name": "Wat Ban Ueam", "value": "Wat Ban Ueam", "n": 2}, {"name": "Li District", "value": "Li District", "n": 2}, {"name": "Wat Si Suphan", "value": "Wat Si Suphan", "n": 1}, {"name": "Wat Si Lom", "value": "Wat Si Lom", "n": 1}, {"name": "Wat San Rim Ping", "value": "Wat San Rim Ping", "n": 1}, {"name": "Wat Saen Mueang Ma", "value": "Wat Saen Mueang Ma", "n": 1}, {"name": "Wat Phra Koet", "value": "Wat Phra Koet", "n": 1}, {"name": "Wat Photharam", "value": "Wat Photharam", "n": 1}, {"name": "Wat Pa Sao", "value": "Wat Pa Sao", "n": 1}, {"name": "Wat Pa Mueat", "value": "Wat Pa Mueat", "n": 1}, {"name": "Wat Nong Bua", "value": "Wat Nong Bua", "n": 1}, {"name": "Wat Na Dao", "value": "Wat Na Dao", "n": 1}, {"name": "Wat Mueang Mo", "value": "Wat Mueang Mo", "n": 1}, {"name": "Wat Kittiwong", "value": "Wat Kittiwong", "n": 1}, {"name": "Wat Kasa", "value": "Wat Kasa", "n": 1}, {"name": "Wat Hia", "value": "Wat Hia", "n": 1}, {"name": "Wat Ban Luk", "value": "Wat Ban Luk", "n": 1}, {"name": "Wat Ban Caem", "value": "Wat Ban Caem", "n": 1}, {"name": "Wat  Cedi Luang Worawihan", "value": "Wat  Cedi Luang Worawihan", "n": 1}, {"name": "Thoen District", "value": "Thoen District", "n": 1}, {"name": "Tha Wang Pha District", "value": "Tha Wang Pha District", "n": 1}, {"name": "Pai District", "value": "Pai District", "n": 1}, {"name": "Khun Yuam District", "value": "Khun Yuam District", "n": 1}, {"name": "Hang Dong Disctrict", "value": "Hang Dong Disctrict", "n": 1}, {"name": "Ban Hong District", "value": "Ban Hong District", "n": 1}], "bbox": {"latmin": 16.470000000000002, "latmax": 20.31, "lonmin": 97.57, "lonmax": 101.17, "w": 1000.0, "h": 820.0}, "max": 2133, "total": 6549}