{"dbPresent": true, "places": [{"value": "Phrae", "label": "Phrae", "n": 2133, "lat": 18.14, "lon": 100.14, "x": 713.9, "y": 463.4}, {"value": "Lampang", "label": "Lampang", "n": 1180, "lat": 18.29, "lon": 99.49, "x": 533.3, "y": 431.4}, {"value": "Chiang Mai", "label": "Chiang Mai", "n": 836, "lat": 18.79, "lon": 98.98, "x": 391.7, "y": 324.6}, {"value": "Nan", "label": "Nan", "n": 694, "lat": 18.78, "lon": 100.77, "x": 888.9, "y": 326.7}, {"value": "Phayao", "label": "Phayao", "n": 585, "lat": 19.17, "lon": 99.9, "x": 647.2, "y": 243.4}, {"value": "Lamphun", "label": "Lamphun", "n": 368, "lat": 18.58, "lon": 99.01, "x": 400.0, "y": 369.4}, {"value": "Chiang Rai", "label": "Chiang Rai", "n": 333, "lat": 19.91, "lon": 99.83, "x": 627.8, "y": 85.4}, {"value": "Mae Hong Son", "label": "Mae Hong Son", "n": 236, "lat": 19.3, "lon": 97.97, "x": 111.1, "y": 215.7}, {"value": "Bangkok", "label": "Bangkok", "n": 21, "lat": 13.75, "lon": 100.5, "x": 813.9, "y": 820.0}, {"value": "Tak", "label": "Tak", "n": 3, "lat": 16.87, "lon": 99.13, "x": 433.3, "y": 734.6}], "unplaced": [{"value": "Mueang District", "n": 28}, {"value": "Sung Men District", "n": 23}, {"value": "Wat Sung Men", "n": 22}, {"value": "Ko Kha District", "n": 12}, {"value": "Wat Lai Hin Luang", "n": 9}, {"value": "Wat Na Pang", "n": 6}, {"value": "Wat Chiang Man", "n": 4}, {"value": "Tha District", "n": 4}, {"value": "Pua District", "n": 4}, {"value": "Wiang Sa District", "n": 3}, {"value": "Wat Si Khom Kham", "n": 3}, {"value": "Mae Sariang District", "n": 3}, {"value": "Wat Si Mongkhon (Kong)", "n": 2}, {"value": "Wat Phra Bat Ming Mueang", "n": 2}, {"value": "Wat Phothanaram", "n": 2}, {"value": "Wat Pang Mu", "n": 2}, {"value": "Wat Luang Ratchasanthan", "n": 2}, {"value": "Wat Klang", "n": 2}, {"value": "Wat Ban Ueam", "n": 2}, {"value": "Li District", "n": 2}, {"value": "Wat Si Suphan", "n": 1}, {"value": "Wat Si Lom", "n": 1}, {"value": "Wat San Rim Ping", "n": 1}, {"value": "Wat Saen Mueang Ma", "n": 1}, {"value": "Wat Phra Koet", "n": 1}, {"value": "Wat Photharam", "n": 1}, {"value": "Wat Pa Sao", "n": 1}, {"value": "Wat Pa Mueat", "n": 1}, {"value": "Wat Nong Bua", "n": 1}, {"value": "Wat Na Dao", "n": 1}, {"value": "Wat Mueang Mo", "n": 1}, {"value": "Wat Kittiwong", "n": 1}, {"value": "Wat Kasa", "n": 1}, {"value": "Wat Hia", "n": 1}, {"value": "Wat Ban Luk", "n": 1}, {"value": "Wat Ban Caem", "n": 1}, {"value": "Wat  Cedi Luang Worawihan", "n": 1}, {"value": "Thoen District", "n": 1}, {"value": "Tha Wang Pha District", "n": 1}, {"value": "Pai District", "n": 1}, {"value": "Khun Yuam District", "n": 1}, {"value": "Hang Dong Disctrict", "n": 1}, {"value": "Ban Hong District", "n": 1}], "bbox": {"latmin": 16.470000000000002, "latmax": 20.31, "lonmin": 97.57, "lonmax": 101.17, "w": 1000.0, "h": 820.0}, "max": 2133, "total": 6549}